[
  {
    "zip": "560001",
    "name": "Devanahalli taluk",
    "latitude": 13.2257,
    "longitude": 77.575,
    "country": "IN"
  },
  {
    "zip": "560002",
    "name": "Bengaluru",
    "latitude": 12.9719,
    "longitude": 77.5937,
    "country": "IN"
  },
  {
    "zip": "560003",
    "name": "Devanahalli taluk",
    "latitude": 13.2257,
    "longitude": 77.575,
    "country": "IN"
  },
  {
    "zip": "560004",
    "name": "Basavanagudi",
    "latitude": 12.9417,
    "longitude": 77.5714,
    "country": "IN"
  },
  {
    "zip": "560005",
    "name": "Fraser Town",
    "latitude": 13.0643,
    "longitude": 77.126,
    "country": "IN"
  },
  {
    "zip": "560006",
    "name": "J.C.Nagar",
    "latitude": 13.0643,
    "longitude": 77.126,
    "country": "IN"
  },
  {
    "zip": "560007",
    "name": "Bengaluru",
    "latitude": 12.991,
    "longitude": 77.5843,
    "country": "IN"
  },
  {
    "zip": "560008",
    "name": "Bengaluru",
    "latitude": 12.991,
    "longitude": 77.5843,
    "country": "IN"
  },
  {
    "zip": "560009",
    "name": "Bengaluru",
    "latitude": 12.991,
    "longitude": 77.5843,
    "country": "IN"
  },
  {
    "zip": "560010",
    "name": "Bengaluru",
    "latitude": 12.9604,
    "longitude": 77.5673,
    "country": "IN"
  },
  {
    "zip": "560011",
    "name": "Bengaluru",
    "latitude": 12.9604,
    "longitude": 77.5673,
    "country": "IN"
  },
  {
    "zip": "560012",
    "name": "Science Institute",
    "latitude": 12.9967,
    "longitude": 77.5551,
    "country": "IN"
  },
  {
    "zip": "560013",
    "name": "Bengaluru",
    "latitude": 12.9604,
    "longitude": 77.5673,
    "country": "IN"
  },
  {
    "zip": "560014",
    "name": "Bengaluru",
    "latitude": 12.9967,
    "longitude": 77.5551,
    "country": "IN"
  },
  {
    "zip": "560015",
    "name": "Jalahalli West",
    "latitude": 12.9967,
    "longitude": 77.5551,
    "country": "IN"
  },
  {
    "zip": "560016",
    "name": "Doorvaninagar",
    "latitude": 12.9967,
    "longitude": 77.5551,
    "country": "IN"
  },
  {
    "zip": "560017",
    "name": "Bengaluru",
    "latitude": 12.9604,
    "longitude": 77.5673,
    "country": "IN"
  },
  {
    "zip": "560018",
    "name": "Chamrajpet (Bangalore)",
    "latitude": 12.9604,
    "longitude": 77.5673,
    "country": "IN"
  },
  {
    "zip": "560019",
    "name": "Bengaluru",
    "latitude": 12.9967,
    "longitude": 77.5551,
    "country": "IN"
  },
  {
    "zip": "560020",
    "name": "Devanahalli taluk",
    "latitude": 13.2257,
    "longitude": 77.575,
    "country": "IN"
  },
  {
    "zip": "560021",
    "name": "Devanahalli taluk",
    "latitude": 13.2257,
    "longitude": 77.575,
    "country": "IN"
  },
  {
    "zip": "560022",
    "name": "Bengaluru",
    "latitude": 12.9996,
    "longitude": 77.6359,
    "country": "IN"
  },
  {
    "zip": "560023",
    "name": "Magadi Road",
    "latitude": 12.975,
    "longitude": 77.5489,
    "country": "IN"
  },
  {
    "zip": "560024",
    "name": "Anandnagar (Bangalore)",
    "latitude": 12.9714,
    "longitude": 77.5481,
    "country": "IN"
  },
  {
    "zip": "560025",
    "name": "Richmond Town",
    "latitude": 12.9634,
    "longitude": 77.6025,
    "country": "IN"
  },
  {
    "zip": "560026",
    "name": "Deepanjalinagar",
    "latitude": 12.9714,
    "longitude": 77.5481,
    "country": "IN"
  },
  {
    "zip": "560027",
    "name": "Sampangiramnagar",
    "latitude": 12.9506,
    "longitude": 77.5952,
    "country": "IN"
  },
  {
    "zip": "560029",
    "name": "Hosakote taluk",
    "latitude": 13.133,
    "longitude": 77.9274,
    "country": "IN"
  },
  {
    "zip": "560030",
    "name": "Devanahalli taluk",
    "latitude": 13.2257,
    "longitude": 77.575,
    "country": "IN"
  },
  {
    "zip": "560032",
    "name": "Bangalore East",
    "latitude": 13.0108,
    "longitude": 77.7494,
    "country": "IN"
  }
]
